{"eid":"33041100025046","time":1496246400,"placeId":64,"address":"07省道欣悦路口棉丰厂东门口","longitude":120.715963,"latitude":30.808332}
{"eid":"33041100002499","time":1496246401,"placeId":42,"address":"长虹村万安桥北侧","longitude":120.721932,"latitude":30.889239}
{"eid":"33041100012488","time":1496246401,"placeId":159,"address":"人民街久灵桥北","longitude":120.734351,"latitude":30.624624}
{"eid":"33041100015507","time":1496246401,"placeId":97,"address":"大德路-九里路路口","longitude":120.703535,"latitude":30.782247}
{"eid":"33041100035764","time":1496246402,"placeId":161,"address":"盛安小区吉蚂路东出口","longitude":120.74173,"latitude":30.694405}
{"eid":"33041100045299","time":1496246402,"placeId":263,"address":"新昌苑小区15幢(枪机)","longitude":120.676177,"latitude":30.682145}
{"eid":"33041100029084","time":1496246403,"placeId":253,"address":"洪合镇泰石村小区东边与洪建公路","longitude":120.672745,"latitude":30.673359}
{"eid":"33041100023365","time":1496246404,"placeId":312,"address":"上睦村新明奥对面三叉路口","longitude":120.745265,"latitude":30.853632}
{"eid":"33041100015686","time":1496246405,"placeId":90,"address":"木桥港北区西大门","longitude":120.69788,"latitude":30.792291}
{"eid":"33041100028628","time":1496246406,"placeId":267,"address":"洪新公路线嘉富玻璃厂路口","longitude":120.657824,"latitude":30.696586}
{"eid":"33041100006666","time":1496246407,"placeId":143,"address":"综治中心广场","longitude":120.718622,"latitude":30.629266}
{"eid":"33041100000776","time":1496246408,"placeId":44,"address":"虹阳杭州华联超市门口","longitude":120.676231,"latitude":30.848021}
{"eid":"33041100005310","time":1496246408,"placeId":218,"address":"虹桥东北大街路口","longitude":120.624039,"latitude":30.802865}
{"eid":"33041100009670","time":1496246410,"placeId":224,"address":"胜利路与新洛路口","longitude":120.618393,"latitude":30.804935}
{"eid":"33041100033578","time":1496246410,"placeId":43,"address":"南汇汽车站","longitude":120.766492,"latitude":30.929611}
{"eid":"33041100019601","time":1496246412,"placeId":123,"address":"新义新菜场","longitude":120.663627,"latitude":30.760767}
{"eid":"33041100025274","time":1496246412,"placeId":23,"address":"虹南村部","longitude":120.676114,"latitude":30.832448}
{"eid":"00001914238534","time":1496246413,"placeId":90,"address":"木桥港北区西大门","longitude":120.69788,"latitude":30.792291}
{"eid":"00001914238535","time":1496246413,"placeId":90,"address":"木桥港北区西大门","longitude":300.0,"latitude":300.0}
{"eid":"33041100024650","time":1496246413,"placeId":47,"address":"胜利路停车场西","longitude":120.716861,"latitude":30.806377}
{"eid":"33041100036484","time":1496246413,"placeId":177,"address":"三建村洪硖公路建中站","longitude":120.674542,"latitude":30.602864}
{"eid":"33041100039548","time":1496246414,"placeId":82,"address":"加创路-洪高路路口","longitude":120.678135,"latitude":30.762028}
{"eid":"33041100007066","time":1496246417,"placeId":171,"address":"建设高家头6号小店边","longitude":120.659702,"latitude":30.62243}
{"eid":"33041100011731","time":1496246417,"placeId":61,"address":"闻川路郁家桥北侧","longitude":120.714776,"latitude":30.886179}
{"eid":"33041100047946","time":1496246417,"placeId":75,"address":"秀洲区政府西侧路口","longitude":120.713955,"latitude":30.769704}
{"eid":"33041100028133","time":1496246418,"placeId":63,"address":"长虹路闻川路口","longitude":120.71784,"latitude":30.884722}
{"eid":"33041100043812","time":1496246418,"placeId":93,"address":"洪高路置信公寓门口","longitude":120.679752,"latitude":30.762652}
{"eid":"33041100039549","time":1496246423,"placeId":127,"address":"新义老菜场","longitude":120.664189,"latitude":30.760422}
{"eid":"33041100047822","time":1496246423,"placeId":265,"address":"中邦财富广场东侧","longitude":120.673922,"latitude":30.682056}
{"eid":"33041100016291","time":1496246424,"placeId":97,"address":"大德路-九里路路口","longitude":120.703535,"latitude":30.782247}
{"eid":"33041100021167","time":1496246424,"placeId":132,"address":"天虹百货南侧停车场","longitude":120.714426,"latitude":30.768075}
{"eid":"33041100016706","time":1496246426,"placeId":64,"address":"07省道欣悦路口棉丰厂东门口","longitude":120.715963,"latitude":30.808332}
{"eid":"33041100019348","time":1496246427,"placeId":102,"address":"好一家8号楼南侧","longitude":120.694017,"latitude":30.756159}
{"eid":"33041100035423","time":1496246427,"placeId":151,"address":"兴乐路庆元路口1","longitude":120.722381,"latitude":30.633294}
{"eid":"33041100019349","time":1496246428,"placeId":75,"address":"秀洲区政府西侧路口","longitude":120.713955,"latitude":30.769704}
{"eid":"33041100028498","time":1496246428,"placeId":266,"address":"新昌苑9幢","longitude":120.675934,"latitude":30.681563}
{"eid":"33041100047369","time":1496246428,"placeId":102,"address":"好一家8号楼南侧","longitude":120.694017,"latitude":30.756159}
{"eid":"33041100030828","time":1496246430,"placeId":35,"address":"小港里往嘉善路北","longitude":120.769008,"latitude":30.930153}
{"eid":"33041100047625","time":1496246430,"placeId":267,"address":"洪新公路线嘉富玻璃厂路口","longitude":120.657824,"latitude":30.696586}
{"eid":"00000543992638","time":1496246431,"placeId":93,"address":"洪高路置信公寓门口","longitude":120.679752,"latitude":30.762652}
{"eid":"33041100011504","time":1496246431,"placeId":29,"address":"佳源广场北","longitude":120.710357,"latitude":30.887822}
{"eid":"33041100039640","time":1496246431,"placeId":102,"address":"好一家8号楼南侧","longitude":120.694017,"latitude":30.756159}